"","pcoa1","pcoa2","Site_number","location","lat","long","sample_type","collection_time","collection_date","forward_filename","reverse_filename","water_phosphate","water_silicate","water_nitrite_plus_nitrate","water_ammonia","turb_weight_ug","turb_percent_C","turb_percent_H","turb_percent_N","turb_C_to_N_ratio","is.neg"
"1",-0.0311500998901787,-0.0398837168504748,"1","moorea",-17.58796,-149.85012,"lagoon_water","15:30","5/20/21","lane1-s002-index--CTCGACTT-ATCGTACG-1_S2_R1_001.fastq.gz","lane1-s002-index--CTCGACTT-ATCGTACG-1_S2_R2_001.fastq.gz",0.22,0.78,0.38,0.88,2397,27.34,3.62,0.65,41.75,FALSE
"10",0.010444704954009,-0.0483343657713143,"10","moorea",-17.57521,-149.87,"lagoon_water","11:05","5/20/21","lane1-s011-index--CGAAGTAT-ACTATCTG-10_S11_R1_001.fastq.gz","lane1-s011-index--CGAAGTAT-ACTATCTG-10_S11_R2_001.fastq.gz",0.18,0.7,0.12,0.14,2360,28.66,3.78,0.65,43.82,FALSE
"100",0.0251265795379065,-0.0139971658947127,"100","moorea",-17.53432,-149.91013,"lagoon_water","12:45","5/19/21","lane1-s097-index--CATCGTGA-CGTTACTA-100_S97_R1_001.fastq.gz","lane1-s097-index--CATCGTGA-CGTTACTA-100_S97_R2_001.fastq.gz",0.14,0.69,0.21,0.05,2907,27.11,3.66,0.74,36.73,FALSE
"101",0.0259146205395917,-0.0130971364957655,"101","moorea",-17.53756,-149.91211,"lagoon_water","12:04","5/19/21","lane1-s098-index--GAGCTCGA-CGTTACTA-101_S98_R1_001.fastq.gz","lane1-s098-index--GAGCTCGA-CGTTACTA-101_S98_R2_001.fastq.gz",0.17,0.75,0.15,0.01,2204,28.8,3.97,0.68,42.41,FALSE
"102",0.0248825914337259,-0.012917712324343,"102","moorea",-17.52928,-149.91816,"lagoon_water","11:21","5/19/21","lane1-s099-index--CAGTAGGT-AGAGTCAC-102_S99_R1_001.fastq.gz","lane1-s099-index--CAGTAGGT-AGAGTCAC-102_S99_R2_001.fastq.gz",0.17,0.72,0.17,0,3078,29.32,4.07,0.6,49.02,FALSE
"103",0.0117977380978468,-0.0461084798613628,"103","moorea",-17.52735,-149.91403,"lagoon_water","10:56","5/19/21","lane1-s100-index--ATAGCGCT-AGAGTCAC-103_S100_R1_001.fastq.gz","lane1-s100-index--ATAGCGCT-AGAGTCAC-103_S100_R2_001.fastq.gz",0.18,0.77,0.38,0.17,2107,27.91,3.72,0.69,40.36,FALSE
"104",-0.0370327988025803,-0.0482532186390149,"104","moorea",-17.52568,-149.91074,"lagoon_water","10:22","5/19/21","lane1-s101-index--TCTAGACT-AGAGTCAC-104_S101_R1_001.fastq.gz","lane1-s101-index--TCTAGACT-AGAGTCAC-104_S101_R2_001.fastq.gz",0.18,1,0.47,0.21,2452,27.73,3.74,0.59,47.1,FALSE
"105",0.0263864199756161,-0.00914041247877715,"105","moorea",-17.52007,-149.92062,"lagoon_water","10:05","5/19/21","lane1-s102-index--TCCTCATG-AGAGTCAC-105_S102_R1_001.fastq.gz","lane1-s102-index--TCCTCATG-AGAGTCAC-105_S102_R2_001.fastq.gz",0.15,0.75,0.37,1.16,3252,29.82,4.18,0.59,50.15,FALSE
"106",0.0129279905838538,-0.00671059826759925,"106","moorea",-17.51945,-149.91706,"lagoon_water","10:52","5/19/21","lane1-s103-index--CGAGCTAG-AGAGTCAC-106_S103_R1_001.fastq.gz","lane1-s103-index--CGAGCTAG-AGAGTCAC-106_S103_R2_001.fastq.gz",0.12,0.91,0.42,0.28,2232,28.83,3.96,0.54,53.39,FALSE
"107",-0.0408311356188551,-0.0290613473246584,"107","moorea",-17.51886,-149.91327,"lagoon_water","11:29","5/19/21","lane1-s104-index--CTCTAGAG-AGAGTCAC-107_S104_R1_001.fastq.gz","lane1-s104-index--CTCTAGAG-AGAGTCAC-107_S104_R2_001.fastq.gz",0.08,1.35,0.38,0.12,2846,27.46,3.66,0.63,43.39,FALSE
"108",0.0258086711391247,-0.00304221177788949,"108","moorea",-17.51273,-149.92259,"lagoon_water","12:54","5/19/21","lane1-s105-index--ATGAGCTC-AGAGTCAC-108_S105_R1_001.fastq.gz","lane1-s105-index--ATGAGCTC-AGAGTCAC-108_S105_R2_001.fastq.gz",0.08,0.83,0.26,0.63,2408,29.21,4.07,0.61,47.85,FALSE
"109",0.0260489560226026,-0.00583304869365862,"109","moorea",-17.51139,-149.91945,"lagoon_water","13:34","5/19/21","lane1-s106-index--AGCATACC-AGAGTCAC-109_S106_R1_001.fastq.gz","lane1-s106-index--AGCATACC-AGAGTCAC-109_S106_R2_001.fastq.gz",0.1,0.88,0.3,0.76,2615,30.1,4.28,0.57,53.06,FALSE
"11",-0.0448461083501188,-0.0577640694784189,"11","moorea",-17.57273,-149.86616,"lagoon_water","11:31","5/20/21","lane1-s012-index--TAGCAGCT-ACTATCTG-11_S12_R1_001.fastq.gz","lane1-s012-index--TAGCAGCT-ACTATCTG-11_S12_R2_001.fastq.gz",0.2,4.7,0.19,0.32,2543,26.25,3.33,0.67,39.29,FALSE
"110",-0.00931248535977593,-0.0656817218547991,"110","moorea",-17.51056,-149.91592,"lagoon_water","14:40","5/19/21","lane1-s107-index--CGTCATAC-AGAGTCAC-110_S107_R1_001.fastq.gz","lane1-s107-index--CGTCATAC-AGAGTCAC-110_S107_R2_001.fastq.gz",0.14,0.97,0.41,0.21,2405,26.85,3.52,0.59,45.14,FALSE
"111",0.0251987387529048,-0.00568790589685583,"111","moorea",-17.50318,-149.92404,"lagoon_water","15:13","5/19/21","lane1-s108-index--TCAGTCTA-AGAGTCAC-111_S108_R1_001.fastq.gz","lane1-s108-index--TCAGTCTA-AGAGTCAC-111_S108_R2_001.fastq.gz",0.14,0.75,0.3,0.18,2947,30.03,4.21,0.51,59.14,FALSE
"112",0.0251528915693535,-0.00535512213709005,"112","moorea",-17.50348,-149.92064,"lagoon_water","15:46","5/19/21","lane1-s109-index--CATCGTGA-AGAGTCAC-112_S109_R1_001.fastq.gz","lane1-s109-index--CATCGTGA-AGAGTCAC-112_S109_R2_001.fastq.gz",0.09,0.8,0.36,0.18,2501,29.37,3.87,0.47,63.07,FALSE
"113",-0.0374977005601735,-0.12752342893203,"113","moorea",-17.50287,-149.91747,"lagoon_water","16:16","5/19/21","lane1-s110-index--GAGCTCGA-AGAGTCAC-113_S110_R1_001.fastq.gz","lane1-s110-index--GAGCTCGA-AGAGTCAC-113_S110_R2_001.fastq.gz",0.15,1.34,0.58,0.27,3051,27.08,3.53,0.6,45.43,FALSE
"114",0.0252925992127421,-0.0051933714953564,"114","moorea",-17.49546,-149.92357,"lagoon_water","9:15","5/24/21","lane1-s111-index--CAGTAGGT-TACGAGAC-114_S111_R1_001.fastq.gz","lane1-s111-index--CAGTAGGT-TACGAGAC-114_S111_R2_001.fastq.gz",0.11,0.69,0.24,0.43,2437,30.13,4.14,0.5,60.35,FALSE
"115",0.0249350902993854,-0.00701246552097676,"115","moorea",-17.49504,-149.91971,"lagoon_water","9:42","5/24/21","lane1-s112-index--ATAGCGCT-TACGAGAC-115_S112_R1_001.fastq.gz","lane1-s112-index--ATAGCGCT-TACGAGAC-115_S112_R2_001.fastq.gz",0.12,0.67,0.25,0.51,2600,29.16,3.92,0.61,47.89,FALSE
"116",0.0146273251692606,-0.0194396622715425,"116","moorea",-17.49475,-149.9146,"lagoon_water","10:00","5/24/21","lane1-s113-index--TCTAGACT-TACGAGAC-116_S113_R1_001.fastq.gz","lane1-s113-index--TCTAGACT-TACGAGAC-116_S113_R2_001.fastq.gz",0.08,0.72,0.28,0.19,2567,26.67,3.45,0.71,37.64,FALSE
"117",0.0105868904939456,-0.0331614636815787,"117","moorea",-17.49065,-149.9111,"lagoon_water","10:24","5/24/21","lane1-s114-index--TCCTCATG-TACGAGAC-117_S114_R1_001.fastq.gz","lane1-s114-index--TCCTCATG-TACGAGAC-117_S114_R2_001.fastq.gz",0.12,0.84,0.23,0.5,3141,25.05,3.21,0.83,30.22,FALSE
"118",-0.00137102377236457,-0.0741658237616127,"118","moorea",-17.48915,-149.90675,"lagoon_water","11:20","5/24/21","lane1-s115-index--CGAGCTAG-TACGAGAC-118_S115_R1_001.fastq.gz","lane1-s115-index--CGAGCTAG-TACGAGAC-118_S115_R2_001.fastq.gz",0.12,0.94,0.23,0.58,2041,25.9,3.32,0.88,29.27,FALSE
"119",0.0261869348704629,-0.00673140259148212,"119","moorea",-17.48592,-149.90779,"lagoon_water","10:40","5/24/21","lane1-s116-index--CTCTAGAG-TACGAGAC-119_S116_R1_001.fastq.gz","lane1-s116-index--CTCTAGAG-TACGAGAC-119_S116_R2_001.fastq.gz",0.12,0.71,0.17,0.5,2897,27.65,3.61,0.61,45.02,FALSE
"120",0.0257571712726241,-0.00569049849386172,"120","moorea",-17.48791,-149.90225,"lagoon_water","11:42","5/24/21","lane1-s117-index--ATGAGCTC-TACGAGAC-120_S117_R1_001.fastq.gz","lane1-s117-index--ATGAGCTC-TACGAGAC-120_S117_R2_001.fastq.gz",0.13,0.74,0.21,0.66,3231,28.79,3.77,0.72,39.72,FALSE
"121",-4.92051606278232e-05,-0.0479046600457366,"121","moorea",-17.48853,-149.89686,"lagoon_water","12:08","5/24/21","lane1-s118-index--AGCATACC-TACGAGAC-121_S118_R1_001.fastq.gz","lane1-s118-index--AGCATACC-TACGAGAC-121_S118_R2_001.fastq.gz",0.15,0.99,0.26,0.49,3101,28.65,3.74,0.62,46.19,FALSE
"122",0.0184575276362006,0.0163281033086495,"122","moorea",-17.48485,-149.89624,"lagoon_water","12:32","5/24/21","lane1-s119-index--CGTCATAC-TACGAGAC-122_S119_R1_001.fastq.gz","lane1-s119-index--CGTCATAC-TACGAGAC-122_S119_R2_001.fastq.gz",0.11,0.78,0.21,0.48,2259,28.7,3.79,0.69,41.3,FALSE
"123",0.0151592528555486,0.0224192553737891,"123","moorea",-17.48895,-149.89129,"lagoon_water","13:15","5/24/21","lane1-s120-index--TCAGTCTA-TACGAGAC-123_S120_R1_001.fastq.gz","lane1-s120-index--TCAGTCTA-TACGAGAC-123_S120_R2_001.fastq.gz",0.14,0.78,0.34,0.53,2177,30.41,4.15,0.53,56.85,FALSE
"125",0.00705023694936309,-0.0195492398046357,"125","moorea",-17.4902,-149.88266,"lagoon_water","10:07","5/25/21","lane1-s121-index--CATCGTGA-TACGAGAC-125_S121_R1_001.fastq.gz","lane1-s121-index--CATCGTGA-TACGAGAC-125_S121_R2_001.fastq.gz",0.15,0.81,0.67,0.97,2268,29.43,3.8,0.7,42.16,FALSE
"126",-0.0393876802786149,-0.118675242029137,"126","moorea",-17.4918,-149.87949,"lagoon_water","15:54","5/24/21","lane1-s122-index--GAGCTCGA-TACGAGAC-126_S122_R1_001.fastq.gz","lane1-s122-index--GAGCTCGA-TACGAGAC-126_S122_R2_001.fastq.gz",0.06,1.74,0.61,0.39,2144,28.33,3.7,0.6,46.9,FALSE
"127",-0.00783101431411496,-0.000729835458646836,"127","moorea",-17.48897,-149.87898,"lagoon_water","15:26","5/24/21","lane1-s123-index--CAGTAGGT-ACGTCTCG-127_S123_R1_001.fastq.gz","lane1-s123-index--CAGTAGGT-ACGTCTCG-127_S123_R2_001.fastq.gz",0.15,0.8,0.41,0.74,2032,29.99,4.09,0.47,63.8,FALSE
"128",0.0119424262691699,0.0350012884057234,"128","moorea",-17.48683,-149.8765,"lagoon_water","11:18","5/25/21","lane1-s124-index--ATAGCGCT-ACGTCTCG-128_S124_R1_001.fastq.gz","lane1-s124-index--ATAGCGCT-ACGTCTCG-128_S124_R2_001.fastq.gz",0.13,0.79,0.35,0.59,2236,27.34,3.45,0.67,40.98,FALSE
"129",-0.0445573706029688,-0.0659763433380403,"129","moorea",-17.48973,-149.87265,"lagoon_water","12:12","5/25/21","lane1-s125-index--TCTAGACT-ACGTCTCG-129_S125_R1_001.fastq.gz","lane1-s125-index--TCTAGACT-ACGTCTCG-129_S125_R2_001.fastq.gz",0.09,1.22,0.19,0.71,2513,29.21,3.85,0.63,46.09,FALSE
"13",-0.0358884961659466,-0.0696603714236506,"13","moorea",-17.56769,-149.87057,"lagoon_water","9:51","5/20/21","lane1-s013-index--TCTCTATG-ACTATCTG-13_S13_R1_001.fastq.gz","lane1-s013-index--TCTCTATG-ACTATCTG-13_S13_R2_001.fastq.gz",0.22,1.31,0.34,0.5,2048,24.85,3.15,0.66,37.36,FALSE
"130",0.0154527738817442,0.025766821285543,"130","moorea",-17.48467,-149.87422,"lagoon_water","11:40","5/25/21","lane1-s126-index--TCCTCATG-ACGTCTCG-130_S126_R1_001.fastq.gz","lane1-s126-index--TCCTCATG-ACGTCTCG-130_S126_R2_001.fastq.gz",0.14,0.79,0.4,0.5,2997,29.49,3.89,0.73,40.14,FALSE
"131",-0.0290343522038077,0.109645791454193,"131","moorea",-17.4881,-149.86676,"lagoon_water","14:50","5/25/21","lane1-s127-index--CGAGCTAG-ACGTCTCG-131_S127_R1_001.fastq.gz","lane1-s127-index--CGAGCTAG-ACGTCTCG-131_S127_R2_001.fastq.gz",0.12,1.18,0.33,0.49,2506,29.19,3.83,0.93,31.38,FALSE
"132",-0.0172360972986621,0.0906474527667228,"132","moorea",-17.48744,-149.87097,"lagoon_water","12:59","5/25/21","lane1-s128-index--CTCTAGAG-ACGTCTCG-132_S128_R1_001.fastq.gz","lane1-s128-index--CTCTAGAG-ACGTCTCG-132_S128_R2_001.fastq.gz",0.14,0.97,0.4,0.55,2380,28.71,3.76,0.7,40.9,FALSE
"133",0.0125036315948159,0.0195593855445527,"133","moorea",-17.49029,-149.8869,"lagoon_water","14:15","5/24/21","lane1-s129-index--ATGAGCTC-ACGTCTCG-133_S129_R1_001.fastq.gz","lane1-s129-index--ATGAGCTC-ACGTCTCG-133_S129_R2_001.fastq.gz",0.08,0.87,0.36,0.24,2494,30.36,4.13,0.69,43.96,FALSE
"134",0.0162501532489548,0.0241144629207683,"134","moorea",-17.48733,-149.88701,"lagoon_water","13:44","5/24/21","lane1-s130-index--AGCATACC-ACGTCTCG-134_S130_R1_001.fastq.gz","lane1-s130-index--AGCATACC-ACGTCTCG-134_S130_R2_001.fastq.gz",0.15,0.77,0.33,0.56,2463,29.65,3.97,0.69,42.72,FALSE
"136",0.0139019471436522,0.0272502967213842,"136","moorea",-17.4869,-149.88057,"lagoon_water","15:00","5/24/21","lane1-s131-index--CGTCATAC-ACGTCTCG-136_S131_R1_001.fastq.gz","lane1-s131-index--CGTCATAC-ACGTCTCG-136_S131_R2_001.fastq.gz",0.08,0.85,0.37,0.26,2435,28.86,3.89,0.66,43.76,FALSE
"137",0.0139719128677196,0.028283806544445,"137","moorea",-17.4838,-149.87981,"lagoon_water","10:49","5/25/21","lane1-s132-index--TCAGTCTA-ACGTCTCG-137_S132_R1_001.fastq.gz","lane1-s132-index--TCAGTCTA-ACGTCTCG-137_S132_R2_001.fastq.gz",0.12,0.78,0.32,0.4,2952,27.7,3.61,0.75,36.71,FALSE
"138",-0.027800308261111,-0.0485690487297988,"138","moorea",-17.4921,-149.87465,"lagoon_water","12:35","5/25/21","lane1-s134-index--CAGTAGGT-TCGACGAG-138_S134_R1_001.fastq.gz","lane1-s134-index--CAGTAGGT-TCGACGAG-138_S134_R2_001.fastq.gz",0.14,0.99,0.28,0.63,2884,30.91,4.38,0.62,50.25,FALSE
"139",-0.0378966389331652,0.0667981309437904,"139","moorea",-17.49065,-149.86812,"lagoon_water","13:23","5/25/21","lane1-s135-index--ATAGCGCT-TCGACGAG-139_S135_R1_001.fastq.gz","lane1-s135-index--ATAGCGCT-TCGACGAG-139_S135_R2_001.fastq.gz",0.15,1.11,0.34,0.64,2632,28.03,3.72,0.57,49.54,FALSE
"14",0.0161804964183595,-0.0313024244439184,"14","moorea",-17.58281,-149.86626,"lagoon_water","11:50","5/20/21","lane1-s014-index--GATCTACG-ACTATCTG-14_S14_R1_001.fastq.gz","lane1-s014-index--GATCTACG-ACTATCTG-14_S14_R2_001.fastq.gz",0.18,0.74,0.15,0.17,2722,29.56,3.91,0.64,45.96,FALSE
"140",-0.0287478273559448,0.117337612371086,"140","moorea",-17.49716,-149.86264,"lagoon_water","13:57","5/25/21","lane1-s136-index--TCTAGACT-TCGACGAG-140_S136_R1_001.fastq.gz","lane1-s136-index--TCTAGACT-TCGACGAG-140_S136_R2_001.fastq.gz",0.13,1.6,0.54,0.47,2368,28.51,3.76,0.74,38.33,FALSE
"141",-0.0429507037732607,0.0413310324803828,"141","moorea",-17.49316,-149.86737,"lagoon_water","13:41","5/25/21","lane1-s137-index--TCCTCATG-TCGACGAG-141_S137_R1_001.fastq.gz","lane1-s137-index--TCCTCATG-TCGACGAG-141_S137_R2_001.fastq.gz",0.16,1.6,0.62,0.6,2405,26.35,3.39,0.76,34.46,FALSE
"142",-0.0195773290204291,0.0328653064182715,"142","moorea",-17.49376,-149.85192,"lagoon_water","15:15","5/25/21","lane1-s138-index--CGAGCTAG-TCGACGAG-142_S138_R1_001.fastq.gz","lane1-s138-index--CGAGCTAG-TCGACGAG-142_S138_R2_001.fastq.gz",0.12,0.84,0.37,0.5,2156,26.91,3.48,0.55,48.7,FALSE
"143",-0.0231864029506137,0.0524864817032285,"143","moorea",-17.49083,-149.85442,"lagoon_water","15:41","5/25/21","lane1-s139-index--CTCTAGAG-TCGACGAG-143_S139_R1_001.fastq.gz","lane1-s139-index--CTCTAGAG-TCGACGAG-143_S139_R2_001.fastq.gz",0.22,1.12,0.54,0.82,2059,27.99,3.58,0.84,33.21,FALSE
"144",-0.0329961908938445,0.0912097088425038,"144","moorea",-17.48895,-149.855,"lagoon_water","16:12","5/25/21","lane1-s140-index--ATGAGCTC-TCGACGAG-144_S140_R1_001.fastq.gz","lane1-s140-index--ATGAGCTC-TCGACGAG-144_S140_R2_001.fastq.gz",0.17,1.29,0.39,0.73,2888,29.83,4.04,0.6,49.65,FALSE
"145",-0.0360340895105781,0.000860861259449485,"145","moorea",-17.48967,-149.84942,"lagoon_water","12:55","5/26/21","lane1-s141-index--AGCATACC-TCGACGAG-145_S141_R1_001.fastq.gz","lane1-s141-index--AGCATACC-TCGACGAG-145_S141_R2_001.fastq.gz",0.17,1.26,0.46,1.68,2605,28.06,3.62,0.72,38.93,FALSE
"146",-0.00973389833509907,0.0673241673603491,"146","moorea",-17.48546,-149.84699,"lagoon_water","12:37","5/26/21","lane1-s142-index--CGTCATAC-TCGACGAG-146_S142_R1_001.fastq.gz","lane1-s142-index--CGTCATAC-TCGACGAG-146_S142_R2_001.fastq.gz",0.16,0.85,0.36,0.68,2765,30.12,3.95,0.68,44.49,FALSE
"147",-0.00188497390846336,0.0501369282010656,"147","moorea",-17.48169,-149.84987,"lagoon_water","11:44","5/26/21","lane1-s143-index--TCAGTCTA-TCGACGAG-147_S143_R1_001.fastq.gz","lane1-s143-index--TCAGTCTA-TCGACGAG-147_S143_R2_001.fastq.gz",0.15,0.94,0.29,0.62,2209,29.24,3.77,0.7,41.81,FALSE
"148",0.000211984987401891,0.0539263966085946,"148","moorea",-17.48387,-149.84902,"lagoon_water","12:13","5/26/21","lane1-s144-index--CATCGTGA-TCGACGAG-148_S144_R1_001.fastq.gz","lane1-s144-index--CATCGTGA-TCGACGAG-148_S144_R2_001.fastq.gz",0.15,0.77,0.33,0.22,2207,29.4,3.76,0.63,46.31,FALSE
"149",-0.0062125170577703,0.0662246185656848,"149","moorea",-17.4865,-149.85203,"lagoon_water","13:16","5/26/21","lane1-s145-index--GAGCTCGA-TCGACGAG-149_S145_R1_001.fastq.gz","lane1-s145-index--GAGCTCGA-TCGACGAG-149_S145_R2_001.fastq.gz",0.16,0.94,0.46,0.73,3019,29.08,3.81,0.58,50.04,FALSE
"15",-0.0423267283314066,-0.0229164649878646,"15","moorea",-17.58035,-149.8535,"lagoon_water","14:45","5/20/21","lane1-s015-index--GTAACGAG-ACTATCTG-15_S15_R1_001.fastq.gz","lane1-s015-index--GTAACGAG-ACTATCTG-15_S15_R2_001.fastq.gz",0.19,0.96,0.22,0.05,2812,27.11,3.54,0.52,52.02,FALSE
"150",-0.0141019558852209,0.05092294886822,"150","moorea",-17.4843,-149.84201,"lagoon_water","16:38","5/24/21","lane1-s146-index--CAGTAGGT-GATCGTGT-150_S146_R1_001.fastq.gz","lane1-s146-index--CAGTAGGT-GATCGTGT-150_S146_R2_001.fastq.gz",0.1,0.85,0.4,0.39,2982,29.66,4.18,0.51,58.23,FALSE
"151",-0.00199395164707407,0.04866204057981,"151","moorea",-17.47822,-149.84236,"lagoon_water","11:11","5/26/21","lane1-s147-index--ATAGCGCT-GATCGTGT-151_S147_R1_001.fastq.gz","lane1-s147-index--ATAGCGCT-GATCGTGT-151_S147_R2_001.fastq.gz",0.13,0.9,0.31,0.61,2694,28.62,3.66,0.74,38.49,FALSE
"152",0.000758138011840396,0.0609918569970351,"152","moorea",-17.4801,-149.84228,"lagoon_water","10:47","5/26/21","lane1-s148-index--TCTAGACT-GATCGTGT-152_S148_R1_001.fastq.gz","lane1-s148-index--TCTAGACT-GATCGTGT-152_S148_R2_001.fastq.gz",0.17,0.88,0.5,0.62,2141,28.4,3.62,0.7,40.74,FALSE
"153",-0.00428826145607892,0.0458204621428569,"153","moorea",-17.47842,-149.83398,"lagoon_water","10:17","5/26/21","lane1-s149-index--TCCTCATG-GATCGTGT-153_S149_R1_001.fastq.gz","lane1-s149-index--TCCTCATG-GATCGTGT-153_S149_R2_001.fastq.gz",0.14,0.93,0.38,0.64,2202,27.16,3.47,0.7,38.71,FALSE
"154",-0.0289959590687127,0.0852420024368606,"154","moorea",-17.47973,-149.83653,"lagoon_water","16:03","5/24/21","lane1-s150-index--CGAGCTAG-GATCGTGT-154_S150_R1_001.fastq.gz","lane1-s150-index--CGAGCTAG-GATCGTGT-154_S150_R2_001.fastq.gz",0.13,0.93,0.35,0.65,2579,27.92,3.7,0.5,55.56,FALSE
"155",-0.00635231800717259,0.0450494074154615,"155","moorea",-17.48487,-149.83479,"lagoon_water","15:50","5/24/21","lane1-s151-index--CTCTAGAG-GATCGTGT-155_S151_R1_001.fastq.gz","lane1-s151-index--CTCTAGAG-GATCGTGT-155_S151_R2_001.fastq.gz",0.14,0.94,0.41,0.64,2419,28.93,3.89,0.57,50.43,FALSE
"156",-0.0123405067858143,0.0372561309528189,"156","moorea",-17.48503,-149.83127,"lagoon_water","15:35","5/24/21","lane1-s152-index--ATGAGCTC-GATCGTGT-156_S152_R1_001.fastq.gz","lane1-s152-index--ATGAGCTC-GATCGTGT-156_S152_R2_001.fastq.gz",0.13,0.9,0.33,0.17,2451,28.01,3.63,0.7,40.03,FALSE
"157",-0.0355434739983068,0.0959160210041308,"157","moorea",-17.48115,-149.83014,"lagoon_water","14:53","5/24/21","lane1-s153-index--AGCATACC-GATCGTGT-157_S153_R1_001.fastq.gz","lane1-s153-index--AGCATACC-GATCGTGT-157_S153_R2_001.fastq.gz",0.11,1.13,0.18,0.34,2906,27.09,3.62,0.53,50.95,FALSE
"158",-0.0160822715260869,0.031393945388093,"158","moorea",-17.48467,-149.82752,"lagoon_water","14:10","5/24/21","lane1-s154-index--CGTCATAC-GATCGTGT-158_S154_R1_001.fastq.gz","lane1-s154-index--CGTCATAC-GATCGTGT-158_S154_R2_001.fastq.gz",0.13,0.89,0.36,0.57,2644,27.7,3.53,0.53,52.27,FALSE
"159",-0.0246438469102207,0.0442509084206529,"159","moorea",-17.48656,-149.82506,"lagoon_water","13:44","5/24/21","lane1-s155-index--TCAGTCTA-GATCGTGT-159_S155_R1_001.fastq.gz","lane1-s155-index--TCAGTCTA-GATCGTGT-159_S155_R2_001.fastq.gz",0.15,0.99,0.35,0.7,2141,27.32,3.46,0.53,51.94,FALSE
"16",-0.0342729860204334,-0.132274740072439,"16","moorea",-17.58695,-149.84261,"lagoon_water","16:24","5/20/21","lane1-s016-index--ACGTGCGC-ACTATCTG-16_S16_R1_001.fastq.gz","lane1-s016-index--ACGTGCGC-ACTATCTG-16_S16_R2_001.fastq.gz",0.22,3.55,0.54,0.75,2318,25.6,3.27,0.95,26.91,FALSE
"160",-0.0311632548476939,0.096679756729533,"160","moorea",-17.48205,-149.82621,"lagoon_water","14:28","5/24/21","lane1-s156-index--CATCGTGA-GATCGTGT-160_S156_R1_001.fastq.gz","lane1-s156-index--CATCGTGA-GATCGTGT-160_S156_R2_001.fastq.gz",0.17,1.1,0.69,0.26,2731,28.54,3.66,0.72,39.69,FALSE
"161",0.0188231383465336,0.00762293857891399,"161","moorea",-17.47371,-149.77685,"lagoon_water","10:17","5/23/21","lane1-s157-index--GAGCTCGA-GATCGTGT-161_S157_R1_001.fastq.gz","lane1-s157-index--GAGCTCGA-GATCGTGT-161_S157_R2_001.fastq.gz",0.14,0.84,0.23,0.18,3041,27.62,3.56,0.7,39.35,FALSE
"162",-0.0171142603120949,-0.043899022260541,"162","moorea",-17.476,-149.78036,"lagoon_water","10:45","5/23/21","lane1-s158-index--CAGTAGGT-GTCAGATA-162_S158_R1_001.fastq.gz","lane1-s158-index--CAGTAGGT-GTCAGATA-162_S158_R2_001.fastq.gz",0.15,1.81,0.27,0.41,2130,29,3.56,0.68,42.77,FALSE
"163",-0.00174507748550424,-0.00755032975303923,"163","moorea",-17.47785,-149.78665,"lagoon_water","11:58","5/23/21","lane1-s159-index--ATAGCGCT-GTCAGATA-163_S159_R1_001.fastq.gz","lane1-s159-index--ATAGCGCT-GTCAGATA-163_S159_R2_001.fastq.gz",0.17,0.91,0.25,0.21,2431,27.99,3.54,0.68,41.05,FALSE
"164",-0.0101602494283892,-0.0177741602085764,"164","moorea",-17.47881,-149.79099,"lagoon_water","14:47","5/23/21","lane1-s160-index--TCTAGACT-GTCAGATA-164_S160_R1_001.fastq.gz","lane1-s160-index--TCTAGACT-GTCAGATA-164_S160_R2_001.fastq.gz",0.15,0.83,0.36,0.33,2298,28.96,3.78,0.56,51.86,FALSE
"165",-0.032887000899662,0.0085707698073997,"165","moorea",-17.47961,-149.79613,"lagoon_water","16:15","5/23/21","lane1-s161-index--TCCTCATG-GTCAGATA-165_S161_R1_001.fastq.gz","lane1-s161-index--TCCTCATG-GTCAGATA-165_S161_R2_001.fastq.gz",0.17,0.91,0.77,0.4,2940,27.85,3.59,0.73,38.28,FALSE
"166",-0.00453196877677217,0.0329267595476147,"166","moorea",-17.47499,-149.78672,"lagoon_water","11:32","5/23/21","lane1-s162-index--CGAGCTAG-GTCAGATA-166_S162_R1_001.fastq.gz","lane1-s162-index--CGAGCTAG-GTCAGATA-166_S162_R2_001.fastq.gz",0.15,0.75,0.29,0.13,2898,28.72,3.7,0.48,60.45,FALSE
"167",0.00201234226232516,0.00657921797430369,"167","moorea",-17.47283,-149.78103,"lagoon_water","11:06","5/23/21","lane1-s163-index--CTCTAGAG-GTCAGATA-167_S163_R1_001.fastq.gz","lane1-s163-index--CTCTAGAG-GTCAGATA-167_S163_R2_001.fastq.gz",0.13,0.86,0.3,0.9,2555,28.6,3.66,0.56,51.08,FALSE
"168",-0.000862825401345644,0.0214063260726985,"168","moorea",-17.47187,-149.78655,"lagoon_water","12:31","5/23/21","lane1-s164-index--ATGAGCTC-GTCAGATA-168_S164_R1_001.fastq.gz","lane1-s164-index--ATGAGCTC-GTCAGATA-168_S164_R2_001.fastq.gz",0.15,0.88,0.27,0.44,2349,28.96,3.53,0.6,48.46,FALSE
"169",-0.00503367286893009,0.0398099896165088,"169","moorea",-17.47434,-149.79374,"lagoon_water","15:18","5/23/21","lane1-s165-index--AGCATACC-GTCAGATA-169_S165_R1_001.fastq.gz","lane1-s165-index--AGCATACC-GTCAGATA-169_S165_R2_001.fastq.gz",0.16,0.88,0.31,0.91,2286,28.54,3.62,0.58,49.29,FALSE
"17",-0.00320962747232567,-0.0456476987800245,"17","moorea",-17.59329,-149.83903,"lagoon_water","10:18","5/26/21","lane1-s017-index--ATAGTACC-ACTATCTG-17_S17_R1_001.fastq.gz","lane1-s017-index--ATAGTACC-ACTATCTG-17_S17_R2_001.fastq.gz",0.19,1.07,0.24,1.48,3310,28.54,3.75,0.65,44.14,FALSE
"170",-0.00276548632747275,0.0303988519041734,"170","moorea",-17.47682,-149.79501,"lagoon_water","15:50","5/23/21","lane1-s166-index--CGTCATAC-GTCAGATA-170_S166_R1_001.fastq.gz","lane1-s166-index--CGTCATAC-GTCAGATA-170_S166_R2_001.fastq.gz",0.16,0.85,0.39,0.84,2366,27.85,3.6,0.72,38.81,FALSE
"171",-0.00923859252780093,0.0265178134098856,"171","moorea",-17.47497,-149.79012,"lagoon_water","14:20","5/23/21","lane1-s167-index--TCAGTCTA-GTCAGATA-171_S167_R1_001.fastq.gz","lane1-s167-index--TCAGTCTA-GTCAGATA-171_S167_R2_001.fastq.gz",0.18,0.79,0.36,0.88,2170,27.72,3.54,0.7,39.82,FALSE
"172",-0.0126819142319065,-0.0185078995856847,"172","moorea",-17.48044,-149.79966,"lagoon_water","10:35","5/25/21","lane1-s168-index--CATCGTGA-GTCAGATA-172_S168_R1_001.fastq.gz","lane1-s168-index--CATCGTGA-GTCAGATA-172_S168_R2_001.fastq.gz",0.17,0.96,0.66,1.66,2171,27.53,3.51,0.68,40.28,FALSE
"173",-0.00743219496273296,-0.0153845641180696,"173","moorea",-17.47605,-149.79737,"lagoon_water","10:15","5/25/21","lane1-s169-index--GAGCTCGA-GTCAGATA-173_S169_R1_001.fastq.gz","lane1-s169-index--GAGCTCGA-GTCAGATA-173_S169_R2_001.fastq.gz",0.16,0.83,0.44,0.72,2770,28.06,3.58,0.72,39.02,FALSE
"175",-0.00533277683719137,-0.00812171457845649,"175","moorea",-17.48082,-149.80484,"lagoon_water","11:23","5/25/21","lane1-s170-index--TACTAGGT-ACGACGTG-175_S170_R1_001.fastq.gz","lane1-s170-index--TACTAGGT-ACGACGTG-175_S170_R2_001.fastq.gz",0.12,1,0.58,0.34,2190,28.34,3.56,0.69,41.08,FALSE
"176",-0.0195564167244004,0.000874327966885429,"176","moorea",-17.48256,-149.81385,"lagoon_water","15:50","5/25/21","lane1-s171-index--ACGTACGT-ACGACGTG-176_S171_R1_001.fastq.gz","lane1-s171-index--ACGTACGT-ACGACGTG-176_S171_R2_001.fastq.gz",0.17,0.87,0.84,0.75,2638,27.08,3.38,0.67,40.48,FALSE
"178",-0.0359969308018974,0.0819653984244945,"178","moorea",-17.48729,-149.81839,"lagoon_water","16:15","5/25/21","lane1-s172-index--CGCGATAT-ACGACGTG-178_S172_R1_001.fastq.gz","lane1-s172-index--CGCGATAT-ACGACGTG-178_S172_R2_001.fastq.gz",0.12,1.59,0.97,0.42,2338,26.35,3.32,0.77,34.14,FALSE
"179",-0.0275298497306847,0.0652702293462833,"179","moorea",-17.4812,-149.8176,"lagoon_water","14:50","5/25/21","lane1-s173-index--CTATCGTG-ACGACGTG-179_S173_R1_001.fastq.gz","lane1-s173-index--CTATCGTG-ACGACGTG-179_S173_R2_001.fastq.gz",0.1,0.95,0.34,0.26,2460,27.69,3.52,0.73,38.03,FALSE
"180",-0.0311716875280804,0.053663060644321,"180","moorea",-17.47708,-149.82124,"lagoon_water","9:32","5/26/21","lane1-s174-index--GCGATACG-ACGACGTG-180_S174_R1_001.fastq.gz","lane1-s174-index--GCGATACG-ACGACGTG-180_S174_R2_001.fastq.gz",0.16,1.07,0.49,1.01,2798,28.23,3.63,0.7,40.35,FALSE
"181",0.00467131676553404,0.0548385291382119,"181","moorea",-17.47478,-149.81489,"lagoon_water","13:40","5/25/21","lane1-s175-index--AGTCGCAG-ACGACGTG-181_S175_R1_001.fastq.gz","lane1-s175-index--AGTCGCAG-ACGACGTG-181_S175_R2_001.fastq.gz",0.15,0.84,0.3,0.62,2890,25.94,3.4,0.65,39.87,FALSE
"182",0.0047403998204295,0.0457382182120489,"182","moorea",-17.47831,-149.81354,"lagoon_water","13:15","5/25/21","lane1-s176-index--GTTACAGC-ACGACGTG-182_S176_R1_001.fastq.gz","lane1-s176-index--GTTACAGC-ACGACGTG-182_S176_R2_001.fastq.gz",0.13,0.88,0.3,1.64,2534,27.45,3.71,0.54,51.09,FALSE
"183",-0.00201212137821311,0.0523218882892163,"183","moorea",-17.48035,-149.81365,"lagoon_water","12:30","5/25/21","lane1-s177-index--TAACGTCC-ACGACGTG-183_S177_R1_001.fastq.gz","lane1-s177-index--TAACGTCC-ACGACGTG-183_S177_R2_001.fastq.gz",0.15,0.84,0.24,0.91,2375,28.07,3.7,0.59,47.6,FALSE
"184",0.0089382043553535,0.0247844706277684,"184","moorea",-17.47487,-149.8077,"lagoon_water","14:10","5/25/21","lane1-s178-index--CTACGACC-ACGACGTG-184_S178_R1_001.fastq.gz","lane1-s178-index--CTACGACC-ACGACGTG-184_S178_R2_001.fastq.gz",0.17,0.82,0.37,0.93,2885,29.23,3.97,0.63,46.46,FALSE
"185",0.00822240223094245,0.0342478519510071,"185","moorea",-17.47691,-149.80663,"lagoon_water","12:00","5/25/21","lane1-s179-index--GAGACTTA-ACGACGTG-185_S179_R1_001.fastq.gz","lane1-s179-index--GAGACTTA-ACGACGTG-185_S179_R2_001.fastq.gz",0.18,0.82,0.33,0.94,2518,29.05,3.89,0.67,43.39,FALSE
"186",0.0134234730730688,0.0114273943363271,"186","moorea",-17.47712,-149.8025,"lagoon_water","10:56","5/25/21","lane1-s180-index--ACTGTGTA-ACGACGTG-186_S180_R1_001.fastq.gz","lane1-s180-index--ACTGTGTA-ACGACGTG-186_S180_R2_001.fastq.gz",0.18,0.84,0.44,0.9,2873,27.58,3.61,0.67,41.01,FALSE
"187",0.00808308780650974,0.0299688458970626,"187","moorea",-17.47899,-149.80634,"lagoon_water","11:40","5/25/21","lane1-s181-index--TGCGTCAA-ACGACGTG-187_S181_R1_001.fastq.gz","lane1-s181-index--TGCGTCAA-ACGACGTG-187_S181_R2_001.fastq.gz",0.18,0.83,0.36,1.68,2143,30.86,4.1,0.62,49.51,FALSE
"188",0.00499448378872223,0.0531858726074462,"188","moorea",-17.47807,-149.81724,"lagoon_water","15:20","5/25/21","lane1-s182-index--TACTAGGT-ATATACAC-188_S182_R1_001.fastq.gz","lane1-s182-index--TACTAGGT-ATATACAC-188_S182_R2_001.fastq.gz",0.17,0.85,0.28,1.66,2627,28.35,3.73,0.68,41.62,FALSE
"19",0.0234312600331478,-0.00791741885147578,"19","moorea",-17.59716,-149.83776,"lagoon_water","10:40","5/26/21","lane1-s018-index--CTCGACTT-TAGCGAGT-19_S18_R1_001.fastq.gz","lane1-s018-index--CTCGACTT-TAGCGAGT-19_S18_R2_001.fastq.gz",0.16,0.78,0.17,0.77,3207,30.82,4.29,0.53,57.77,FALSE
"2",-0.0293413272017973,-0.029412020252322,"2","moorea",-17.59043,-149.85131,"lagoon_water","16:12","5/20/21","lane1-s003-index--CGAAGTAT-ATCGTACG-2_S3_R1_001.fastq.gz","lane1-s003-index--CGAAGTAT-ATCGTACG-2_S3_R2_001.fastq.gz",0.18,1.06,0.36,0.62,2641,29.85,4.14,0.52,57.88,FALSE
"20",0.0202936832450305,-0.0105025763000668,"20","moorea",-17.60238,-149.83034,"lagoon_water","15:50","5/26/21","lane1-s019-index--CGAAGTAT-TAGCGAGT-20_S19_R1_001.fastq.gz","lane1-s019-index--CGAAGTAT-TAGCGAGT-20_S19_R2_001.fastq.gz",0.18,0.66,0.17,1.27,2224,29.16,4,0.69,42.12,FALSE
"200",-0.0130555450187361,-0.0158348855300328,"200","moorea",-17.49044,-149.89176,"lagoon_water","13:00","5/24/21","lane1-s183-index--ACGTACGT-ATATACAC-200_S183_R1_001.fastq.gz","lane1-s183-index--ACGTACGT-ATATACAC-200_S183_R2_001.fastq.gz",0.19,0.94,0.45,0.91,2821,26.09,3.39,0.72,36.15,FALSE
"201",-0.000907991113802988,0.0338642689632062,"201","moorea",-17.58183,-149.78965,"lagoon_water","15:30","5/22/21","lane1-s184-index--CGCGATAT-ATATACAC-201_S184_R1_001.fastq.gz","lane1-s184-index--CGCGATAT-ATATACAC-201_S184_R2_001.fastq.gz",0.17,0.85,0.13,0.37,2083,28.83,3.82,0.66,43.69,FALSE
"202",-0.0140302356587924,-0.0883397117208785,"202","moorea",-17.58791,-149.80488,"lagoon_water","11:36","5/26/21","lane1-s185-index--CTATCGTG-ATATACAC-202_S185_R1_001.fastq.gz","lane1-s185-index--CTATCGTG-ATATACAC-202_S185_R2_001.fastq.gz",0.21,2.5,0.45,1.75,2872,26.69,3.47,0.65,41.06,FALSE
"203",-0.0410577984885671,-0.139442470502596,"203","moorea",-17.50637,-149.91716,"lagoon_water","14:19","5/19/21","lane1-s186-index--GCGATACG-ATATACAC-203_S186_R1_001.fastq.gz","lane1-s186-index--GCGATACG-ATATACAC-203_S186_R2_001.fastq.gz",0.16,2.84,0.54,1.64,2473,28.41,3.69,0.7,40.75,FALSE
"204",-0.0245899626681135,-0.11430006162683,"204","moorea",-17.50963,-149.76818,"lagoon_water","12:18","5/21/21","lane1-s187-index--AGTCGCAG-ATATACAC-204_S187_R1_001.fastq.gz","lane1-s187-index--AGTCGCAG-ATATACAC-204_S187_R2_001.fastq.gz",0.18,1.66,0.06,0.7,2361,29.74,3.9,0.66,45.12,FALSE
"205",-0.0333290576148956,0.0159880823936948,"205","moorea",-17.55094,-149.78795,"lagoon_water","16:21","5/22/21","lane1-s188-index--GTTACAGC-ATATACAC-205_S188_R1_001.fastq.gz","lane1-s188-index--GTTACAGC-ATATACAC-205_S188_R2_001.fastq.gz",0.26,11.2,0.39,0.96,2410,28.11,3.65,0.85,33.07,FALSE
"206",-0.00584163441696489,-0.0054255075711283,"206","moorea",-17.56594,-149.79259,"lagoon_water","11:15","5/22/21","lane1-s189-index--TAACGTCC-ATATACAC-206_S189_R1_001.fastq.gz","lane1-s189-index--TAACGTCC-ATATACAC-206_S189_R2_001.fastq.gz",0.18,1.03,0.37,0.95,2557,26.93,3.45,0.69,39.05,FALSE
"207",-0.00205495210976119,-0.0310527462178669,"207","moorea",-17.57248,-149.79544,"lagoon_water","13:21","5/22/21","lane1-s190-index--CTACGACC-ATATACAC-207_S190_R1_001.fastq.gz","lane1-s190-index--CTACGACC-ATATACAC-207_S190_R2_001.fastq.gz",0.19,1.11,0.43,1.76,2671,26.4,3.3,0.85,31,FALSE
"208",0.0180732418239141,-0.0310014612333666,"208","moorea",-17.55015,-149.88495,"lagoon_water","14:30","5/20/21","lane1-s191-index--GAGACTTA-ATATACAC-208_S191_R1_001.fastq.gz","lane1-s191-index--GAGACTTA-ATATACAC-208_S191_R2_001.fastq.gz",0.19,5.15,0.48,0.9,2313,26.6,3.4,0.75,35.51,FALSE
"209",0.0223437565131488,-0.00300997783221788,"209","moorea",-17.5528,-149.88307,"lagoon_water","14:10","5/20/21","lane1-s192-index--ACTGTGTA-ATATACAC-209_S192_R1_001.fastq.gz","lane1-s192-index--ACTGTGTA-ATATACAC-209_S192_R2_001.fastq.gz",0.14,1.05,0.34,0.92,2201,26.63,3.33,0.81,33.08,FALSE
"21",0.0144456400987109,-0.0272128241685777,"21","moorea",-17.59344,-149.82625,"lagoon_water","10:57","5/26/21","lane1-s020-index--TAGCAGCT-TAGCGAGT-21_S20_R1_001.fastq.gz","lane1-s020-index--TAGCAGCT-TAGCGAGT-21_S20_R2_001.fastq.gz",0.18,0.8,0.28,1.13,2907,26.04,3.44,0.7,37.11,FALSE
"210",-0.0241057780378719,-0.0450893652861309,"210","moorea",-17.55789,-149.87744,"lagoon_water","12:30","5/20/21","lane1-s193-index--TGCGTCAA-ATATACAC-210_S193_R1_001.fastq.gz","lane1-s193-index--TGCGTCAA-ATATACAC-210_S193_R2_001.fastq.gz",0.21,1.17,0.46,1.73,3000,26.97,3.45,0.82,33.07,FALSE
"22",0.0264866265407449,-0.00331567024753861,"22","moorea",-17.60255,-149.80759,"lagoon_water","13:50","5/26/21","lane1-s021-index--TCTCTATG-TAGCGAGT-22_S21_R1_001.fastq.gz","lane1-s021-index--TCTCTATG-TAGCGAGT-22_S21_R2_001.fastq.gz",0.16,0.77,0.14,0.63,2736,30.54,4.39,0.5,61.64,FALSE
"24",0.00188850934440072,-0.0341890471301318,"24","moorea",-17.59378,-149.81353,"lagoon_water","14:24","5/26/21","lane1-s022-index--GATCTACG-TAGCGAGT-24_S22_R1_001.fastq.gz","lane1-s022-index--GATCTACG-TAGCGAGT-24_S22_R2_001.fastq.gz",0.2,0.81,0.29,0.68,3164,26.59,3.52,0.63,42.33,FALSE
"25",0.0100981759003987,-0.0378331284880336,"25","moorea",-17.59514,-149.80741,"lagoon_water","12:56","5/26/21","lane1-s023-index--GTAACGAG-TAGCGAGT-25_S23_R1_001.fastq.gz","lane1-s023-index--GTAACGAG-TAGCGAGT-25_S23_R2_001.fastq.gz",0.18,0.83,0.23,0.77,3119,27.59,3.73,0.64,43.3,FALSE
"26",0.00174486565401189,-0.0536908905737143,"26","moorea",-17.59317,-149.80337,"lagoon_water","11:52","5/26/21","lane1-s024-index--ACGTGCGC-TAGCGAGT-26_S24_R1_001.fastq.gz","lane1-s024-index--ACGTGCGC-TAGCGAGT-26_S24_R2_001.fastq.gz",0.2,0.87,0.25,0.82,2705,26.22,3.48,0.62,42.11,FALSE
"27",0.0211301365409821,-0.0111382172228595,"27","moorea",-17.59616,-149.79826,"lagoon_water","12:26","5/26/21","lane1-s025-index--ATAGTACC-TAGCGAGT-27_S25_R1_001.fastq.gz","lane1-s025-index--ATAGTACC-TAGCGAGT-27_S25_R2_001.fastq.gz",0.14,0.74,0.16,0.63,2560,30.75,4.38,0.54,56.97,FALSE
"28",0.0237840790102562,-0.00667262523759818,"28","moorea",-17.59882,-149.81939,"lagoon_water","14:57","5/26/21","lane1-s026-index--CTCGACTT-CTGCGTGT-28_S26_R1_001.fastq.gz","lane1-s026-index--CTCGACTT-CTGCGTGT-28_S26_R2_001.fastq.gz",0.17,0.79,0.1,1.05,2136,31.51,4.31,0.67,46.73,FALSE
"29",0.0218279905001829,-0.00806342478730406,"29","moorea",-17.59742,-149.82838,"lagoon_water","11:12","5/26/21","lane1-s027-index--CGAAGTAT-CTGCGTGT-29_S27_R1_001.fastq.gz","lane1-s027-index--CGAAGTAT-CTGCGTGT-29_S27_R2_001.fastq.gz",0.16,0.78,0.14,1.47,3131,29.79,4.21,0.64,46.55,FALSE
"3",-0.00657406765039307,-0.0166431974096728,"3","moorea",-17.59053,-149.86127,"lagoon_water","13:30","5/20/21","lane1-s004-index--TAGCAGCT-ATCGTACG-3_S4_R1_001.fastq.gz","lane1-s004-index--TAGCAGCT-ATCGTACG-3_S4_R2_001.fastq.gz",0.18,0.65,0.14,0.1,2532,28.25,3.76,0.68,41.78,FALSE
"30",0.0241984730977105,-0.00676969723693501,"30","moorea",-17.59746,-149.80912,"lagoon_water","14:08","5/26/21","lane1-s028-index--TAGCAGCT-CTGCGTGT-30_S28_R1_001.fastq.gz","lane1-s028-index--TAGCAGCT-CTGCGTGT-30_S28_R2_001.fastq.gz",0.15,0.75,0.17,0.68,3244,29.31,3.99,0.68,42.96,FALSE
"31",0.0247498049144602,-0.00309337437779153,"31","moorea",-17.59731,-149.80624,"lagoon_water","13:11","5/26/21","lane1-s029-index--TCTCTATG-CTGCGTGT-31_S29_R1_001.fastq.gz","lane1-s029-index--TCTCTATG-CTGCGTGT-31_S29_R2_001.fastq.gz",0.16,0.73,0.19,0.62,2060,31.12,4.32,0.66,47.07,FALSE
"32",0.0254684174234327,-0.00749018758261915,"32","moorea",-17.59475,-149.80159,"lagoon_water","12:04","5/26/21","lane1-s030-index--GATCTACG-CTGCGTGT-32_S30_R1_001.fastq.gz","lane1-s030-index--GATCTACG-CTGCGTGT-32_S30_R2_001.fastq.gz",0.16,0.77,0.17,0.64,2559,30.38,4.28,0.51,59.96,FALSE
"34",0.00709062367525034,0.0208911389852544,"34","moorea",-17.58031,-149.79438,"lagoon_water","15:00","5/22/21","lane1-s031-index--GTAACGAG-CTGCGTGT-34_S31_R1_001.fastq.gz","lane1-s031-index--GTAACGAG-CTGCGTGT-34_S31_R2_001.fastq.gz",0.17,0.77,0.1,0.09,2923,27.49,3.68,0.66,41.74,FALSE
"35",-0.00198247463819573,-0.0391835473390771,"35","moorea",-17.58383,-149.79855,"lagoon_water","15:56","5/22/21","lane1-s032-index--ACGTGCGC-CTGCGTGT-35_S32_R1_001.fastq.gz","lane1-s032-index--ACGTGCGC-CTGCGTGT-35_S32_R2_001.fastq.gz",0.22,0.95,0.33,0.19,2513,26.39,3.49,0.75,35.41,FALSE
"36",-0.004347466104692,-0.0349137121060959,"36","moorea",-17.57891,-149.7967,"lagoon_water","14:44","5/22/21","lane1-s033-index--ATAGTACC-CTGCGTGT-36_S33_R1_001.fastq.gz","lane1-s033-index--ATAGTACC-CTGCGTGT-36_S33_R2_001.fastq.gz",0.1,1.24,0.31,0.46,2528,26.87,3.48,0.81,33.25,FALSE
"37",-0.00805989507998775,-0.0365292404733047,"37","moorea",-17.57349,-149.79429,"lagoon_water","13:43","5/22/21","lane1-s034-index--CTCGACTT-TCATCGAG-37_S34_R1_001.fastq.gz","lane1-s034-index--CTCGACTT-TCATCGAG-37_S34_R2_001.fastq.gz",0.19,1.22,0.24,0.16,2117,26.11,3.41,0.8,32.72,FALSE
"38",-0.0092232992857092,-0.00631000215955962,"38","moorea",-17.56787,-149.7925,"lagoon_water","11:30","5/22/21","lane1-s035-index--CGAAGTAT-TCATCGAG-38_S35_R1_001.fastq.gz","lane1-s035-index--CGAAGTAT-TCATCGAG-38_S35_R2_001.fastq.gz",0.2,0.74,0.24,0.15,2829,27.01,3.53,0.72,37.65,FALSE
"39",0.0065611371109074,0.000822561047084676,"39","moorea",-17.57239,-149.78833,"lagoon_water","12:55","5/22/21","lane1-s036-index--TAGCAGCT-TCATCGAG-39_S36_R1_001.fastq.gz","lane1-s036-index--TAGCAGCT-TCATCGAG-39_S36_R2_001.fastq.gz",0.16,0.94,0.25,0.26,2851,27.17,3.62,0.56,48.08,FALSE
"4",0.0258550816691921,-0.0126380743748997,"4","moorea",-17.58474,-149.85843,"lagoon_water","13:54","5/20/21","lane1-s005-index--TCTCTATG-ATCGTACG-4_S5_R1_001.fastq.gz","lane1-s005-index--TCTCTATG-ATCGTACG-4_S5_R2_001.fastq.gz",0.19,0.77,0.18,0.17,2038,29.36,3.99,0.61,48.05,FALSE
"40",-0.00351310850170593,0.0184839887989608,"40","moorea",-17.57567,-149.78853,"lagoon_water","14:15","5/22/21","lane1-s037-index--TCTCTATG-TCATCGAG-40_S37_R1_001.fastq.gz","lane1-s037-index--TCTCTATG-TCATCGAG-40_S37_R2_001.fastq.gz",0.2,0.75,0.2,0.11,2066,28.06,3.69,0.69,40.61,FALSE
"41",0.00538898019968616,0.0395801059950462,"41","moorea",-17.57019,-149.78739,"lagoon_water","12:22","5/22/21","lane1-s038-index--GATCTACG-TCATCGAG-41_S38_R1_001.fastq.gz","lane1-s038-index--GATCTACG-TCATCGAG-41_S38_R2_001.fastq.gz",0.11,0.93,0.18,0.28,2463,29.01,3.94,0.6,48.28,FALSE
"42",0.00933949961699431,0.036303349247378,"42","moorea",-17.56927,-149.78966,"lagoon_water","11:50","5/22/21","lane1-s039-index--GTAACGAG-TCATCGAG-42_S39_R1_001.fastq.gz","lane1-s039-index--GTAACGAG-TCATCGAG-42_S39_R2_001.fastq.gz",0.12,0.82,0.22,0.29,2426,28.66,3.78,0.71,40.23,FALSE
"43",0.013724997700919,0.0228903703265651,"43","moorea",-17.56248,-149.78303,"lagoon_water","10:49","5/22/21","lane1-s040-index--ACGTGCGC-TCATCGAG-43_S40_R1_001.fastq.gz","lane1-s040-index--ACGTGCGC-TCATCGAG-43_S40_R2_001.fastq.gz",0.17,0.77,0.13,0.53,2848,28.04,3.7,0.59,47.28,FALSE
"44",0.0146177266294709,0.0208298061009565,"44","moorea",-17.5615,-149.78549,"lagoon_water","10:20","5/22/21","lane1-s041-index--ATAGTACC-TCATCGAG-44_S41_R1_001.fastq.gz","lane1-s041-index--ATAGTACC-TCATCGAG-44_S41_R2_001.fastq.gz",0.19,0.73,0.07,0.03,2070,28.74,3.86,0.58,49.93,FALSE
"45",-0.00957426278911205,-0.0131281079634168,"45","moorea",-17.56025,-149.7891,"lagoon_water","10:05","5/22/21","lane1-s042-index--CTCGACTT-CGTGAGTG-45_S42_R1_001.fastq.gz","lane1-s042-index--CTCGACTT-CGTGAGTG-45_S42_R2_001.fastq.gz",0.2,0.96,0.23,0.15,2420,27.23,3.53,0.56,48.25,FALSE
"46",0.000752895488862121,0.00332792280591098,"46","moorea",-17.55799,-149.78094,"lagoon_water","9:49","5/22/21","lane1-s043-index--CGAAGTAT-CGTGAGTG-46_S43_R1_001.fastq.gz","lane1-s043-index--CGAAGTAT-CGTGAGTG-46_S43_R2_001.fastq.gz",0.19,0.88,0.19,0.15,2269,27.06,3.6,0.69,39.18,FALSE
"47",0.0201100596598422,-0.0246656566024069,"47","moorea",-17.59313,-149.85466,"lagoon_water","15:15","5/20/21","lane1-s045-index--GATCTACG-CGTGAGTG-47_S45_R1_001.fastq.gz","lane1-s045-index--GATCTACG-CGTGAGTG-47_S45_R2_001.fastq.gz",0.21,0.79,0.14,0.12,2700,30.25,4.19,0.69,43.88,FALSE
"48",0.0212640792495192,-0.0161333606953874,"48","moorea",-17.59492,-149.81718,"lagoon_water","14:41","5/26/21","lane1-s046-index--GTAACGAG-CGTGAGTG-48_S46_R1_001.fastq.gz","lane1-s046-index--GTAACGAG-CGTGAGTG-48_S46_R2_001.fastq.gz",0.17,0.74,0.14,1.03,2306,27.94,3.88,0.56,49.6,FALSE
"5",0.0260088979213662,-0.0135960482092168,"5","moorea",-17.5851,-149.86729,"lagoon_water","12:24","5/20/21","lane1-s006-index--GATCTACG-ATCGTACG-5_S6_R1_001.fastq.gz","lane1-s006-index--GATCTACG-ATCGTACG-5_S6_R2_001.fastq.gz",0.18,0.68,0.11,1.15,2944,28.43,3.79,0.69,41.11,FALSE
"50",0.0218100021742339,-0.00362553257719762,"50","moorea",-17.601,-149.80085,"lagoon_water","13:28","5/26/21","lane1-s047-index--ACGTGCGC-CGTGAGTG-50_S47_R1_001.fastq.gz","lane1-s047-index--ACGTGCGC-CGTGAGTG-50_S47_R2_001.fastq.gz",0.17,0.74,0.13,0.6,2397,30.24,4.23,0.61,49.66,FALSE
"51",0.000877552039770619,0.025575805372129,"51","moorea",-17.55479,-149.78912,"lagoon_water","9:30","5/22/21","lane1-s048-index--ATAGTACC-CGTGAGTG-51_S48_R1_001.fastq.gz","lane1-s048-index--ATAGTACC-CGTGAGTG-51_S48_R2_001.fastq.gz",0.22,0.97,0.54,0.9,2437,27.2,3.56,0.77,35.35,FALSE
"52",0.00752586212595568,0.0156358813467203,"52","moorea",-17.5483,-149.78066,"lagoon_water","16:01","5/21/21","lane1-s049-index--GCGTATAC-CGTGAGTG-52_S49_R1_001.fastq.gz","lane1-s049-index--GCGTATAC-CGTGAGTG-52_S49_R2_001.fastq.gz",0.16,0.92,0.31,0.27,2737,27.68,3.72,0.61,45.25,FALSE
"53",-0.00800532579494211,0.00605287084845351,"53","moorea",-17.54554,-149.77825,"lagoon_water","15:35","5/21/21","lane1-s050-index--TGCTCGTA-CGTGAGTG-53_S50_R1_001.fastq.gz","lane1-s050-index--TGCTCGTA-CGTGAGTG-53_S50_R2_001.fastq.gz",0.21,1.04,0.31,0.7,2287,28,3.72,0.6,46.87,FALSE
"54",-0.00160121054039863,-0.0192120799710621,"54","moorea",-17.54049,-149.77395,"lagoon_water","14:33","5/21/21","lane1-s051-index--AACGCTGA-CGTGAGTG-54_S51_R1_001.fastq.gz","lane1-s051-index--AACGCTGA-CGTGAGTG-54_S51_R2_001.fastq.gz",0.21,0.86,0.22,1.11,2499,29.47,4.04,0.46,63.94,FALSE
"55",0.00331115393811102,-0.0143871983730997,"55","moorea",-17.54389,-149.77475,"lagoon_water","14:45","5/21/21","lane1-s052-index--CGTAGCGA-CGTGAGTG-55_S52_R1_001.fastq.gz","lane1-s052-index--CGTAGCGA-CGTGAGTG-55_S52_R2_001.fastq.gz",0.21,1,0.39,1.55,2683,27.96,3.72,0.65,43.09,FALSE
"56",0.0191193922570877,0.0159770127228653,"56","moorea",-17.54066,-149.77038,"lagoon_water","14:04","5/21/21","lane1-s053-index--CAGTAGGT-GGATATCT-56_S53_R1_001.fastq.gz","lane1-s053-index--CAGTAGGT-GGATATCT-56_S53_R2_001.fastq.gz",0.17,0.71,0.17,0.76,2187,30.64,4.31,0.52,58.86,FALSE
"57",0.0183572417342723,0.0211209385112321,"57","moorea",-17.54171,-149.76657,"lagoon_water","13:34","5/21/21","lane1-s054-index--ATAGCGCT-GGATATCT-57_S54_R1_001.fastq.gz","lane1-s054-index--ATAGCGCT-GGATATCT-57_S54_R2_001.fastq.gz",0.19,0.8,0.23,0.87,2055,30.75,4.35,0.46,67.4,FALSE
"58",0.0177786561782055,0.0264278489403829,"58","moorea",-17.54809,-149.77324,"lagoon_water","15:04","5/21/21","lane1-s055-index--TCTAGACT-GGATATCT-58_S55_R1_001.fastq.gz","lane1-s055-index--TCTAGACT-GGATATCT-58_S55_R2_001.fastq.gz",0.17,0.75,0.18,0.73,2514,29.47,4.04,0.49,60.13,FALSE
"59",0.0161483275487209,0.0304969791876212,"59","moorea",-17.54355,-149.77061,"lagoon_water","16:13","5/21/21","lane1-s056-index--TCCTCATG-GGATATCT-59_S56_R1_001.fastq.gz","lane1-s056-index--TCCTCATG-GGATATCT-59_S56_R2_001.fastq.gz",0.14,0.98,0.15,0,2164,29.66,4.12,0.4,73.73,FALSE
"6",0.0122016108235397,-0.0421426053084451,"6","moorea",-17.57797,-149.87319,"lagoon_water","10:41","5/20/21","lane1-s007-index--GTAACGAG-ATCGTACG-6_S7_R1_001.fastq.gz","lane1-s007-index--GTAACGAG-ATCGTACG-6_S7_R2_001.fastq.gz",0.19,0.82,0.11,0.06,2748,29.18,3.93,0.64,45.8,FALSE
"60",0.0151364386379755,0.0286645633882807,"60","moorea",-17.55227,-149.7774,"lagoon_water","15:45","5/21/21","lane1-s057-index--CGAGCTAG-GGATATCT-60_S57_R1_001.fastq.gz","lane1-s057-index--CGAGCTAG-GGATATCT-60_S57_R2_001.fastq.gz",0.16,0.84,0.32,1.31,2461,28.2,3.82,0.59,47.55,FALSE
"61",0.013541249008595,0.000172844042698072,"61","moorea",-17.53524,-149.77153,"lagoon_water","11:42","5/21/21","lane1-s058-index--CTCTAGAG-GGATATCT-61_S58_R1_001.fastq.gz","lane1-s058-index--CTCTAGAG-GGATATCT-61_S58_R2_001.fastq.gz",0.12,0.82,0.17,0.59,3108,28.08,3.8,0.66,42.87,FALSE
"62",0.0197440779757141,0.00771415743708924,"62","moorea",-17.53598,-149.76799,"lagoon_water","12:13","5/21/21","lane1-s059-index--ATGAGCTC-GGATATCT-62_S59_R1_001.fastq.gz","lane1-s059-index--ATGAGCTC-GGATATCT-62_S59_R2_001.fastq.gz",0.1,0.78,0.14,0.49,2325,29.02,3.87,0.63,46.11,FALSE
"63",0.018634626580755,0.00727961552906078,"63","moorea",-17.53694,-149.76456,"lagoon_water","12:45","5/21/21","lane1-s060-index--AGCATACC-GGATATCT-63_S60_R1_001.fastq.gz","lane1-s060-index--AGCATACC-GGATATCT-63_S60_R2_001.fastq.gz",0.11,0.72,0.14,0.47,2362,30.53,4.45,0.49,62.15,FALSE
"64",0.0144406449932881,-0.00401242979976949,"64","moorea",-17.52993,-149.76623,"lagoon_water","10:48","5/21/21","lane1-s061-index--CGTCATAC-GGATATCT-64_S61_R1_001.fastq.gz","lane1-s061-index--CGTCATAC-GGATATCT-64_S61_R2_001.fastq.gz",0.11,0.76,0.17,0.42,2143,28.13,3.82,0.63,44.38,FALSE
"65",0.0104436905205859,-0.0194230405214643,"65","moorea",-17.52484,-149.76495,"lagoon_water","9:53","5/21/21","lane1-s062-index--TCAGTCTA-GGATATCT-65_S62_R1_001.fastq.gz","lane1-s062-index--TCAGTCTA-GGATATCT-65_S62_R2_001.fastq.gz",0.14,0.82,0.16,0.12,2132,27.46,3.68,0.64,42.7,FALSE
"66",-0.0122199329477652,-0.0465693545366991,"66","moorea",-17.5284,-149.7735,"lagoon_water","11:19","5/21/21","lane1-s063-index--CATCGTGA-GGATATCT-66_S63_R1_001.fastq.gz","lane1-s063-index--CATCGTGA-GGATATCT-66_S63_R2_001.fastq.gz",0.13,0.92,0.37,0.75,2380,26.92,3.57,0.59,45.85,FALSE
"67",-0.038983564470221,-0.0164435046714646,"67","moorea",-17.52267,-149.77937,"lagoon_water","16:35","5/21/21","lane1-s064-index--CAGTAGGT-GACACCGT-67_S64_R1_001.fastq.gz","lane1-s064-index--CAGTAGGT-GACACCGT-67_S64_R2_001.fastq.gz",0.14,2.38,0.31,-0.01,2269,27.34,3.59,0.73,37.64,FALSE
"68",-0.00424961742268132,0.0228540346305537,"68","moorea",-17.52007,-149.77383,"lagoon_water","16:20","5/21/21","lane1-s065-index--ATAGCGCT-GACACCGT-68_S65_R1_001.fastq.gz","lane1-s065-index--ATAGCGCT-GACACCGT-68_S65_R2_001.fastq.gz",0.11,0.82,0.2,-0.01,2407,27.23,3.6,0.58,46.9,FALSE
"69",-0.0186425539028472,-0.0645767481599634,"69","moorea",-17.51598,-149.76878,"lagoon_water","15:05","5/21/21","lane1-s066-index--TCTAGACT-GACACCGT-69_S66_R1_001.fastq.gz","lane1-s066-index--TCTAGACT-GACACCGT-69_S66_R2_001.fastq.gz",0.14,1.05,0.27,0.02,2222,28.31,3.77,0.74,38.17,FALSE
"7",-0.0434834799743711,-0.0435468370825575,"7","moorea",-17.57851,-149.86222,"lagoon_water","13:01","5/20/21","lane1-s008-index--ACGTGCGC-ATCGTACG-7_S8_R1_001.fastq.gz","lane1-s008-index--ACGTGCGC-ATCGTACG-7_S8_R2_001.fastq.gz",0.18,0.91,0.18,0.3,2359,28.36,3.78,0.53,53.19,FALSE
"70",0.0219335755691702,-0.00670263708809477,"70","moorea",-17.5103,-149.76659,"lagoon_water","12:37","5/21/21","lane1-s067-index--TCCTCATG-GACACCGT-70_S67_R1_001.fastq.gz","lane1-s067-index--TCCTCATG-GACACCGT-70_S67_R2_001.fastq.gz",0.11,0.76,0.09,0.06,2971,27.8,3.73,0.65,42.92,FALSE
"71",0.0186418282957229,0.0136879809849556,"71","moorea",-17.51072,-149.76303,"lagoon_water","13:00","5/21/21","lane1-s068-index--CGAGCTAG-GACACCGT-71_S68_R1_001.fastq.gz","lane1-s068-index--CGAGCTAG-GACACCGT-71_S68_R2_001.fastq.gz",0.11,0.74,0.1,-0.01,2777,28.19,3.9,0.59,47.49,FALSE
"72",-0.00696899620968502,0.0423429029071747,"72","moorea",-17.52173,-149.76436,"lagoon_water","15:51","5/21/21","lane1-s069-index--CTCTAGAG-GACACCGT-72_S69_R1_001.fastq.gz","lane1-s069-index--CTCTAGAG-GACACCGT-72_S69_R2_001.fastq.gz",0.12,0.81,0.16,-0.01,2877,28.12,3.81,0.69,40.9,FALSE
"73",0.0146361462612569,0.0207152071315482,"73","moorea",-17.51639,-149.76421,"lagoon_water","15:24","5/21/21","lane1-s070-index--ATGAGCTC-GACACCGT-73_S70_R1_001.fastq.gz","lane1-s070-index--ATGAGCTC-GACACCGT-73_S70_R2_001.fastq.gz",0.11,0.76,0.1,-0.02,2227,28.46,3.87,0.53,54.02,FALSE
"74",0.0226754675214738,-0.00160686108534344,"74","moorea",-17.50533,-149.76093,"lagoon_water","11:52","5/21/21","lane1-s071-index--AGCATACC-GACACCGT-74_S71_R1_001.fastq.gz","lane1-s071-index--AGCATACC-GACACCGT-74_S71_R2_001.fastq.gz",0.1,0.76,0.08,0.08,2906,28.61,3.86,0.7,40.95,FALSE
"75",0.022000573120129,-0.00516444808115767,"75","moorea",-17.50327,-149.76453,"lagoon_water","11:21","5/21/21","lane1-s072-index--CGTCATAC-GACACCGT-75_S72_R1_001.fastq.gz","lane1-s072-index--CGTCATAC-GACACCGT-75_S72_R2_001.fastq.gz",0.1,0.74,0.05,0,2630,27.62,3.7,0.71,39.08,FALSE
"76",0.0189056486122778,-0.0290632611389584,"76","moorea",-17.50094,-149.76272,"lagoon_water","11:05","5/21/21","lane1-s073-index--TCAGTCTA-GACACCGT-76_S73_R1_001.fastq.gz","lane1-s073-index--TCAGTCTA-GACACCGT-76_S73_R2_001.fastq.gz",0.09,0.72,0.06,0,NA,NA,NA,NA,NA,FALSE
"77",0.021964678806228,-0.00581050773706374,"77","moorea",-17.50258,-149.75975,"lagoon_water","10:39","5/21/21","lane1-s074-index--CATCGTGA-GACACCGT-77_S74_R1_001.fastq.gz","lane1-s074-index--CATCGTGA-GACACCGT-77_S74_R2_001.fastq.gz",0.09,0.77,0.04,0.21,3133,29.24,4.05,0.64,45.41,FALSE
"78",0.021626627907533,-0.0074734290901259,"78","moorea",-17.50025,-149.75765,"lagoon_water","10:09","5/21/21","lane1-s075-index--GAGCTCGA-GACACCGT-78_S75_R1_001.fastq.gz","lane1-s075-index--GAGCTCGA-GACACCGT-78_S75_R2_001.fastq.gz",0.12,0.81,0.08,-0.01,2530,29.72,4.1,0.6,49.16,FALSE
"79",0.0252005006154931,-0.00659750435034271,"79","moorea",-17.60411,-149.82103,"lagoon_water","15:12","5/26/21","lane1-s076-index--CAGTAGGT-CTACTATA-79_S76_R1_001.fastq.gz","lane1-s076-index--CAGTAGGT-CTACTATA-79_S76_R2_001.fastq.gz",0.12,0.73,0.14,1.17,2482,31.85,4.55,0.48,65.87,FALSE
"8",-0.0371242122101967,-0.0286722113465273,"8","moorea",-17.58235,-149.85452,"lagoon_water","14:15","5/20/21","lane1-s009-index--ATAGTACC-ATCGTACG-8_S9_R1_001.fastq.gz","lane1-s009-index--ATAGTACC-ATCGTACG-8_S9_R2_001.fastq.gz",0.19,0.8,0.27,0.13,2706,27.94,3.63,0.62,45.2,FALSE
"80",-0.0360491416459278,-0.0305729209303044,"80","moorea",-17.56381,-149.87435,"lagoon_water","16:45","5/20/21","lane1-s077-index--ATAGCGCT-CTACTATA-80_S77_R1_001.fastq.gz","lane1-s077-index--ATAGCGCT-CTACTATA-80_S77_R2_001.fastq.gz",0.16,1.17,0.31,0.67,2522,26.26,3.45,0.67,38.93,FALSE
"81",0.00465779983803863,-0.0348810973625544,"81","moorea",-17.5651,-149.87756,"lagoon_water","9:29","5/20/21","lane1-s078-index--TCTAGACT-CTACTATA-81_S78_R1_001.fastq.gz","lane1-s078-index--TCTAGACT-CTACTATA-81_S78_R2_001.fastq.gz",0.18,1,0.35,0.23,2296,26.17,3.43,0.6,43.4,FALSE
"82",0.0147820149919202,-0.0418357281401913,"82","moorea",-17.56891,-149.87854,"lagoon_water","9:28","5/20/21","lane1-s079-index--TCCTCATG-CTACTATA-82_S79_R1_001.fastq.gz","lane1-s079-index--TCCTCATG-CTACTATA-82_S79_R2_001.fastq.gz",0.15,0.75,0.13,0.12,2734,29.6,4.02,0.61,48.33,FALSE
"83",0.0267308711379939,-0.00115142670176997,"83","moorea",-17.56706,-149.88305,"lagoon_water","10:01","5/20/21","lane1-s080-index--CGAGCTAG-CTACTATA-83_S80_R1_001.fastq.gz","lane1-s080-index--CGAGCTAG-CTACTATA-83_S80_R2_001.fastq.gz",0.12,0.83,0.23,0.09,NA,NA,NA,NA,NA,FALSE
"84",0.025325009948199,-0.00395465439137153,"84","moorea",-17.56044,-149.88653,"lagoon_water","11:05","5/20/21","lane1-s081-index--CTCTAGAG-CTACTATA-84_S81_R1_001.fastq.gz","lane1-s081-index--CTCTAGAG-CTACTATA-84_S81_R2_001.fastq.gz",0.13,0.78,0.28,0.13,2945,29.38,4.12,0.5,59.12,FALSE
"85",0.0254081246499984,-0.00225572557284781,"85","moorea",-17.56351,-149.88122,"lagoon_water","10:31","5/20/21","lane1-s082-index--ATGAGCTC-CTACTATA-85_S82_R1_001.fastq.gz","lane1-s082-index--ATGAGCTC-CTACTATA-85_S82_R2_001.fastq.gz",0.15,0.73,0.32,1.32,2417,27.76,3.7,0.58,48.01,FALSE
"86",0.0138183651517717,-0.00439045339840981,"86","moorea",-17.5585,-149.88263,"lagoon_water","11:38","5/20/21","lane1-s083-index--AGCATACC-CTACTATA-86_S83_R1_001.fastq.gz","lane1-s083-index--AGCATACC-CTACTATA-86_S83_R2_001.fastq.gz",0.09,0.94,0.35,0.14,2321,26.18,3.45,0.68,38.4,FALSE
"87",-0.0166534538956682,-0.0433161737311582,"87","moorea",-17.55784,-149.87963,"lagoon_water","12:05","5/20/21","lane1-s084-index--CGTCATAC-CTACTATA-87_S84_R1_001.fastq.gz","lane1-s084-index--CGTCATAC-CTACTATA-87_S84_R2_001.fastq.gz",0.16,0.99,0.4,1.16,2913,27.12,3.54,0.64,42.18,FALSE
"89",-0.0102257992154755,0.00526632823374625,"89","moorea",-17.55474,-149.88559,"lagoon_water","13:51","5/20/21","lane1-s085-index--TCAGTCTA-CTACTATA-89_S85_R1_001.fastq.gz","lane1-s085-index--TCAGTCTA-CTACTATA-89_S85_R2_001.fastq.gz",0.15,1.03,0.31,1.18,2462,26.35,3.43,0.66,40.01,FALSE
"9",0.021738408482771,-0.0230844170093626,"9","moorea",-17.57453,-149.874,"lagoon_water","10:11","5/20/21","lane1-s010-index--CTCGACTT-ACTATCTG-9_S10_R1_001.fastq.gz","lane1-s010-index--CTCGACTT-ACTATCTG-9_S10_R2_001.fastq.gz",0.19,0.87,0.08,0.15,2359,27.67,3.56,0.76,36.2,FALSE
"90",-0.0448597546041319,-0.0462084023965088,"90","moorea",-17.55574,-149.88792,"lagoon_water","12:58","5/20/21","lane1-s087-index--CAGTAGGT-CGTTACTA-90_S87_R1_001.fastq.gz","lane1-s087-index--CAGTAGGT-CGTTACTA-90_S87_R2_001.fastq.gz",0.08,0.84,0.2,0.13,2213,28.46,3.7,0.74,38.21,FALSE
"91",0.0239150808809481,-0.00975215026804786,"91","moorea",-17.55742,-149.89051,"lagoon_water","13:25","5/20/21","lane1-s088-index--ATAGCGCT-CGTTACTA-91_S88_R1_001.fastq.gz","lane1-s088-index--ATAGCGCT-CGTTACTA-91_S88_R2_001.fastq.gz",0.15,0.74,0.35,0.56,2427,29.28,3.91,0.67,43.46,FALSE
"92",0.0251714696973369,-0.0155205353865315,"92","moorea",-17.55033,-149.89705,"lagoon_water","14:44","5/20/21","lane1-s089-index--TCTAGACT-CGTTACTA-92_S89_R1_001.fastq.gz","lane1-s089-index--TCTAGACT-CGTTACTA-92_S89_R2_001.fastq.gz",0.08,0.93,0.28,0.09,2453,30.37,4.24,0.54,55.93,FALSE
"93",0.0138779054305685,-0.0295819012798899,"93","moorea",-17.54638,-149.89117,"lagoon_water","15:24","5/20/21","lane1-s090-index--TCCTCATG-CGTTACTA-93_S90_R1_001.fastq.gz","lane1-s090-index--TCCTCATG-CGTTACTA-93_S90_R2_001.fastq.gz",0.1,1.28,0.47,0.18,2024,26.46,3.44,0.71,37.26,FALSE
"94",0.0254851617832507,-0.00710783263403873,"94","moorea",-17.54781,-149.89496,"lagoon_water","15:40","5/19/21","lane1-s091-index--CGAGCTAG-CGTTACTA-94_S91_R1_001.fastq.gz","lane1-s091-index--CGAGCTAG-CGTTACTA-94_S91_R2_001.fastq.gz",0.12,0.74,0.2,0.05,2074,30.41,4.17,0.57,53.73,FALSE
"95",0.0245029071509724,-0.00406945349664356,"95","moorea",-17.54494,-149.90223,"lagoon_water","15:08","5/19/21","lane1-s092-index--CTCTAGAG-CGTTACTA-95_S92_R1_001.fastq.gz","lane1-s092-index--CTCTAGAG-CGTTACTA-95_S92_R2_001.fastq.gz",0.15,0.71,0.17,0.08,2866,29.95,4.06,0.6,49.68,FALSE
"96",-0.000479402174558776,-0.0450974330436813,"96","moorea",-17.53816,-149.90449,"lagoon_water","13:47","5/19/21","lane1-s093-index--ATGAGCTC-CGTTACTA-96_S93_R1_001.fastq.gz","lane1-s093-index--ATGAGCTC-CGTTACTA-96_S93_R2_001.fastq.gz",0.16,1.17,0.52,0.11,3035,25.47,3.3,0.75,34.13,FALSE
"97",0.0253504409651931,-0.00750972400712169,"97","moorea",-17.54098,-149.90676,"lagoon_water","14:02","5/19/21","lane1-s094-index--AGCATACC-CGTTACTA-97_S94_R1_001.fastq.gz","lane1-s094-index--AGCATACC-CGTTACTA-97_S94_R2_001.fastq.gz",0.14,0.78,0.16,0,2331,28.17,3.8,0.69,40.64,FALSE
"98",0.0253312760606014,-0.00932041173044187,"98","moorea",-17.54182,-149.89851,"lagoon_water","14:30","5/19/21","lane1-s095-index--CGTCATAC-CGTTACTA-98_S95_R1_001.fastq.gz","lane1-s095-index--CGTCATAC-CGTTACTA-98_S95_R2_001.fastq.gz",0.14,0.71,0.24,0.1,2209,27.32,3.66,0.65,41.8,FALSE
"99",-0.000639344863006141,-0.0271777201627607,"99","moorea",-17.53413,-149.90549,"lagoon_water","13:20","5/19/21","lane1-s096-index--TCAGTCTA-CGTTACTA-99_S96_R1_001.fastq.gz","lane1-s096-index--TCAGTCTA-CGTTACTA-99_S96_R2_001.fastq.gz",0.17,0.81,0.44,1.13,2966,26.33,3.5,0.72,36.62,FALSE
"OPU-1",-0.0355341089198819,0.109609603707397,"OPU 1","moorea",-17.50843,-149.85259,"lagoon_water","14:31","5/25/21","lane1-s197-index--CTATCGTG-CGTCGCTA-OPU-1_S197_R1_001.fastq.gz","lane1-s197-index--CTATCGTG-CGTCGCTA-OPU-1_S197_R2_001.fastq.gz",0.19,2.11,0.25,1.08,3069,29.24,3.69,0.7,41.63,FALSE
"OPU-2",-0.034530921487795,0.114188386033276,"OPU 2","moorea",-17.50654,-149.8576,"lagoon_water","14:20","5/25/21","lane1-s198-index--GCGATACG-CGTCGCTA-OPU-2_S198_R1_001.fastq.gz","lane1-s198-index--GCGATACG-CGTCGCTA-OPU-2_S198_R2_001.fastq.gz",0.25,2.53,0.87,1.57,2588,27.32,3.52,0.79,34.72,FALSE
